,City,Country,Lat,Lng,Max Temp,Humidity,Cloudiness,Wind Speed,Current Description
0,Cherskiy,RU,68.75,161.3,52.43,80,0,3.0,clear sky
1,Atuona,PF,-9.8,-139.0333,77.59,77,12,21.9,few clouds
2,Klaksvik,FO,62.2266,-6.589,54.52,82,93,25.12,overcast clouds
3,Rikitea,PF,-23.1203,-134.9692,73.06,77,100,24.76,overcast clouds
4,Souillac,MU,-20.5167,57.5167,70.18,52,40,18.41,scattered clouds
5,Cidreira,BR,-30.1811,-50.2056,61.83,65,95,10.83,overcast clouds
6,Havelock,US,34.8791,-76.9013,96.98,67,20,13.8,few clouds
7,Longyearbyen,SJ,78.2186,15.6401,48.04,87,75,5.75,broken clouds
8,Axim,GH,4.8699,-2.2405,75.67,81,100,9.84,overcast clouds
9,Beshpagir,RU,45.0217,42.3808,80.02,35,14,20.22,few clouds
10,Iralaya,HN,15.0,-83.2333,82.17,85,100,14.76,overcast clouds
11,Santander,ES,43.4647,-3.8044,80.71,86,0,5.01,clear sky
12,Rio Grande,BR,-32.035,-52.0986,66.31,73,51,14.32,broken clouds
13,Kalemie,CD,-5.9475,29.1947,72.9,55,40,2.73,scattered clouds
14,Itarema,BR,-2.9248,-39.9167,83.23,63,15,18.41,few clouds
15,Saldanha,ZA,-33.0117,17.9442,56.88,93,100,4.65,overcast clouds
16,Barrow,US,71.2906,-156.7887,44.62,93,100,12.66,light rain
17,Bagdarin,RU,54.4333,113.6,53.94,80,100,1.63,overcast clouds
18,Mataura,NZ,-46.1927,168.8643,36.64,93,99,1.81,overcast clouds
19,Ormara,PK,25.2088,64.6357,84.87,80,100,14.81,overcast clouds
20,Pierre,US,44.3683,-100.351,86.92,51,0,19.57,clear sky
21,Upernavik,GL,72.7868,-56.1549,40.55,84,97,6.69,overcast clouds
22,Ushuaia,AR,-54.8,-68.3,46.02,70,0,2.3,clear sky
23,Port-Gentil,GA,-0.7193,8.7815,75.16,83,75,14.97,broken clouds
24,Umm Lajj,SA,25.0213,37.2685,91.18,55,31,7.02,scattered clouds
25,Xihua,CN,33.7833,114.5167,76.55,94,80,5.66,broken clouds
26,Fort Wellington,GY,6.4,-57.6,85.17,68,98,7.14,overcast clouds
27,Tianpeng,CN,30.9866,103.9393,84.67,82,99,4.38,overcast clouds
28,Butaritari,KI,3.0707,172.7902,81.57,77,94,17.63,light rain
29,Lagunas,PE,-5.2269,-75.6753,81.14,83,85,5.84,overcast clouds
30,Mount Isa,AU,-20.7333,139.5,46.17,57,0,0.0,clear sky
31,Totolapan,MX,18.5167,-96.1833,85.89,65,99,3.69,overcast clouds
32,Jamestown,US,42.097,-79.2353,78.03,48,40,6.91,scattered clouds
33,Waingapu,ID,-9.6567,120.2641,75.33,86,97,3.65,overcast clouds
34,Sao Joao Da Barra,BR,-21.6403,-41.0511,86.09,66,70,14.18,broken clouds
35,Marawi,PH,7.9986,124.2928,68.81,87,99,1.77,overcast clouds
36,Avarua,CK,-21.2078,-159.775,69.85,83,6,4.61,clear sky
37,Busselton,AU,-33.65,115.3333,50.7,81,20,4.99,few clouds
38,Strezhevoy,RU,60.7333,77.5889,58.86,69,1,10.11,clear sky
39,Talcahuano,CL,-36.7167,-73.1167,53.28,66,40,9.22,scattered clouds
40,Hirara,JP,24.8,125.2833,84.99,70,2,7.78,clear sky
41,High Level,CA,58.5169,-117.136,75.9,39,5,8.01,clear sky
42,Mahibadhoo,MV,3.7833,72.9667,81.39,81,50,7.61,scattered clouds
43,Katsuura,JP,35.1333,140.3,80.69,91,88,13.09,overcast clouds
44,Baykit,RU,61.67,96.37,59.31,82,100,1.81,overcast clouds
45,Castro,BR,-24.7911,-50.0119,45.75,92,96,14.25,overcast clouds
46,Dikson,RU,73.5069,80.5464,41.94,96,100,10.11,overcast clouds
47,Maceio,BR,-9.6658,-35.7353,85.44,54,0,10.36,clear sky
48,Cabo San Lucas,MX,22.8909,-109.9124,94.6,62,20,10.36,few clouds
49,Vaini,TO,-21.2,-175.2,77.16,94,20,10.36,few clouds
50,Buraydah,SA,26.326,43.975,104.45,14,43,15.32,scattered clouds
51,Tasiilaq,GL,65.6145,-37.6368,39.36,81,34,6.8,scattered clouds
52,Ponta Do Sol,PT,32.6667,-17.1,75.13,74,31,6.78,scattered clouds
53,Greytown,ZA,-29.0642,30.5928,56.01,66,24,2.91,few clouds
54,Walvis Bay,NA,-22.9575,14.5053,54.55,87,18,3.44,few clouds
55,Arraial Do Cabo,BR,-22.9661,-42.0278,73.26,78,75,5.75,light rain
56,Pisco,PE,-13.7,-76.2167,63.01,77,75,11.5,broken clouds
57,Kaitangata,NZ,-46.2817,169.8464,37.4,85,97,1.41,overcast clouds
58,Tuktoyaktuk,CA,69.4541,-133.0374,44.46,88,100,26.31,light rain
59,Geraldton,AU,-28.7667,114.6,43.21,93,10,8.05,clear sky
60,Thompson,CA,55.7435,-97.8558,70.3,34,1,5.93,clear sky
61,Torbay,CA,47.6666,-52.7314,59.58,85,100,15.01,overcast clouds
62,Khatanga,RU,71.9667,102.5,45.3,68,97,13.94,overcast clouds
63,Kapaa,US,22.0752,-159.319,78.48,86,75,14.97,broken clouds
64,Hammerfest,NO,70.6634,23.6821,54.05,100,75,6.91,light rain
65,Itoman,JP,26.1247,127.6694,84.22,82,40,4.61,haze
66,San Quintin,MX,30.4833,-115.95,79.38,62,37,9.95,scattered clouds
67,Amuntai,ID,-2.4177,115.2494,73.6,96,100,2.66,overcast clouds
68,Punta Arenas,CL,-53.15,-70.9167,46.51,71,0,11.5,clear sky
69,Puerto Ayora,EC,-0.7393,-90.3518,80.56,83,92,8.01,overcast clouds
70,Georgetown,MY,5.4112,100.3354,81.95,84,20,0.0,few clouds
71,Hermanus,ZA,-34.4187,19.2345,55.8,87,100,8.66,overcast clouds
72,Zhigansk,RU,66.7697,123.3711,56.93,79,66,7.78,broken clouds
73,New Norfolk,AU,-42.7826,147.0587,40.91,74,84,2.44,broken clouds
74,Hobart,AU,-42.8794,147.3294,42.66,82,93,8.05,overcast clouds
75,Hithadhoo,MV,-0.6,73.0833,82.36,73,64,8.01,broken clouds
76,Bereznik,RU,62.8551,42.7072,59.27,71,63,3.85,broken clouds
77,Half Moon Bay,US,37.4636,-122.4286,78.91,68,0,11.5,clear sky
78,Sumenep,ID,-7.0167,113.8667,79.75,80,65,9.44,broken clouds
79,Victoria,HK,22.2855,114.1577,83.32,88,100,13.0,overcast clouds
80,Kosum Phisai,TH,16.2486,103.0674,81.84,87,97,12.01,overcast clouds
81,Deputatskiy,RU,69.3,139.9,48.38,86,4,1.01,clear sky
82,Batsfjord,NO,70.6345,29.7185,60.73,94,75,12.66,broken clouds
83,Belaya Gora,RU,68.5333,146.4167,56.21,70,6,2.73,clear sky
84,Cardston,CA,49.2,-113.3019,86.22,22,100,11.39,overcast clouds
85,Te Anau,NZ,-45.4167,167.7167,33.13,94,76,3.6,broken clouds
86,Namibe,AO,-15.1961,12.1522,62.69,89,12,8.88,few clouds
87,Qui Nhon,VN,13.7667,109.2333,79.16,77,100,5.19,heavy intensity rain
88,Kavieng,PG,-2.5744,150.7967,79.36,79,100,3.02,overcast clouds
89,Carutapera,BR,-1.195,-46.02,84.69,65,58,9.04,broken clouds
90,Xingyi,CN,24.1877,102.817,62.73,88,65,2.95,broken clouds
91,Marondera,ZW,-18.1853,31.5519,55.47,38,0,4.9,clear sky
92,Port Hawkesbury,CA,45.6169,-61.3485,68.97,95,100,3.0,overcast clouds
93,Kodiak,US,57.79,-152.4072,56.71,88,100,0.0,overcast clouds
94,Aitape,PG,-3.1374,142.3475,76.6,89,89,4.81,overcast clouds
95,Prado,BR,-17.3411,-39.2208,78.19,62,8,18.63,clear sky
96,Iki-Burul,RU,45.8208,44.6472,82.26,32,0,14.12,clear sky
97,Katherine,AU,-14.4667,132.2667,73.72,56,9,8.05,clear sky
98,Homer,US,59.6425,-151.5483,58.77,87,0,11.01,clear sky
99,Sonneberg,DE,50.35,11.1667,74.71,43,23,4.72,few clouds
100,Port Alfred,ZA,-33.5906,26.891,61.18,83,85,7.23,overcast clouds
101,Mbandaka,CD,0.0487,18.2603,78.46,58,76,3.85,broken clouds
102,Nikolskoye,RU,59.7035,30.7861,64.29,73,21,3.98,few clouds
103,Reconquista,AR,-29.15,-59.65,62.22,43,34,7.0,scattered clouds
104,Severo-Kurilsk,RU,50.6789,156.125,54.23,95,88,10.45,overcast clouds
105,Kahului,US,20.8947,-156.47,82.42,67,40,21.85,scattered clouds
106,Pervouralsk,RU,56.9053,59.9436,62.74,74,69,3.6,broken clouds
107,Hirado,JP,33.3597,129.5531,81.39,87,100,11.9,overcast clouds
108,Praia,CV,14.9215,-23.5087,84.74,74,75,13.8,broken clouds
109,Bentong,MY,3.5181,101.9079,74.41,93,25,0.69,scattered clouds
110,Kurumkan,RU,54.3,110.3,56.25,61,54,1.79,broken clouds
111,Hilo,US,19.7297,-155.09,87.28,89,100,3.44,overcast clouds
112,Weyburn,CA,49.6668,-103.8511,75.87,33,99,8.43,overcast clouds
113,Alofi,NU,-19.0595,-169.9187,66.09,100,30,3.44,scattered clouds
114,Martapura,ID,-3.4167,114.85,75.29,100,75,4.61,broken clouds
115,Northam,GB,51.0333,-4.2167,77.61,45,6,9.24,clear sky
116,Namatanai,PG,-3.6667,152.4333,78.49,82,100,4.16,light rain
117,Balkhash,KZ,46.844,74.9804,73.38,49,19,10.4,few clouds
118,Carnarvon,AU,-24.8667,113.6333,59.05,52,0,16.22,clear sky
119,Meulaboh,ID,4.1363,96.1285,76.98,87,24,3.87,few clouds
120,Saint-Philippe,RE,-21.3585,55.7679,67.59,77,65,16.98,broken clouds
121,Iqaluit,CA,63.7506,-68.5145,54.7,66,0,10.0,clear sky
122,Bata,GQ,1.8639,9.7658,76.53,86,84,12.75,broken clouds
123,La Paz,BO,-16.5,-68.15,60.78,18,20,6.91,few clouds
124,Yellowknife,CA,62.456,-114.3525,59.56,82,100,13.0,overcast clouds
125,Alice Springs,AU,-23.7,133.8833,58.55,58,100,9.22,overcast clouds
126,Gizo,SB,-8.103,156.8419,80.38,77,93,4.45,light rain
127,Luang Prabang,LA,19.8856,102.1347,73.98,95,99,1.3,overcast clouds
128,Kruisfontein,ZA,-34.0033,24.7314,56.88,90,100,4.72,overcast clouds
129,Albany,US,42.6001,-73.9662,78.17,67,66,4.92,broken clouds
130,Tezu,IN,27.9167,96.1667,78.4,85,33,2.37,scattered clouds
131,Tiksi,RU,71.6872,128.8694,48.54,94,97,5.57,overcast clouds
132,Subtanjalla,PE,-14.0189,-75.7581,78.39,33,5,6.06,clear sky
133,Erzin,TR,36.9559,36.2,77.45,83,86,6.38,overcast clouds
134,Bud,US,39.447,-86.1758,82.67,73,79,3.91,broken clouds
135,Naze,JP,28.3667,129.4833,81.52,77,86,3.71,overcast clouds
136,Muisne,EC,0.6,-80.0333,75.07,84,100,12.41,overcast clouds
137,Dingle,PH,10.9995,122.6711,75.51,90,99,1.7,overcast clouds
138,Laguna,US,38.421,-121.4238,81.97,53,0,6.91,clear sky
139,Vryheid,ZA,-27.7695,30.7917,57.09,43,0,3.24,clear sky
140,Vila Do Maio,CV,15.1333,-23.2167,84.99,83,58,8.99,broken clouds
141,Rocha,UY,-34.4833,-54.3333,56.95,58,1,7.11,clear sky
142,Champerico,GT,14.3,-91.9167,90.14,66,77,4.34,broken clouds
143,Chuy,UY,-33.6971,-53.4616,55.63,62,1,8.14,clear sky
144,Tacuarembo,UY,-31.7333,-55.9833,56.75,60,2,7.07,clear sky
145,Bredasdorp,ZA,-34.5322,20.0403,54.05,92,100,4.61,overcast clouds
146,Ambilobe,MG,-13.2,49.05,69.67,75,7,6.17,clear sky
147,Burnie,AU,-41.0667,145.9167,49.95,75,72,10.56,broken clouds
148,Shahrud,IR,36.4182,54.9763,71.04,57,0,14.07,clear sky
149,Chokurdakh,RU,70.6333,147.9167,52.41,69,0,8.79,clear sky
150,Port Washington,US,40.8257,-73.6982,87.26,56,75,6.91,broken clouds
151,Skelleftea,SE,64.7507,20.9528,72.0,76,100,5.75,overcast clouds
152,Sheffield,GB,53.383,-1.4659,86.9,36,24,2.39,few clouds
153,Bluff,NZ,-46.6,168.3333,42.3,68,100,7.92,overcast clouds
154,Fortuna,US,40.5982,-124.1573,73.9,61,20,4.61,few clouds
155,Port Blair,IN,11.6667,92.75,80.64,83,40,5.75,mist
156,Henties Bay,NA,-22.116,14.2845,54.23,90,20,5.95,few clouds
157,Sioux Lookout,CA,50.1001,-91.917,68.02,42,19,13.02,few clouds
158,Kalmunai,LK,7.4167,81.8167,79.57,81,85,0.74,overcast clouds
159,Hasaki,JP,35.7333,140.8333,79.29,89,94,15.26,overcast clouds
160,Hami,CN,42.8,93.45,93.67,14,3,22.7,clear sky
161,Ribeira Grande,PT,38.5167,-28.7,75.6,78,40,2.3,light intensity shower rain
162,Nhulunbuy,AU,-12.2333,136.7667,70.41,94,40,3.44,scattered clouds
163,Mbamba,NG,9.9833,13.1,75.22,87,96,2.91,overcast clouds
164,Puri,IN,19.8,85.85,79.32,87,100,14.2,moderate rain
165,Kashi,CN,39.4547,75.9797,78.01,31,71,13.42,broken clouds
166,Palmer,US,42.1584,-72.3287,86.25,51,75,5.75,broken clouds
167,Tignere,CM,7.3667,12.65,66.27,97,90,1.99,light rain
168,East London,ZA,-33.0153,27.9116,54.54,94,0,3.44,clear sky
169,Lebu,CL,-37.6167,-73.65,52.16,70,66,4.83,broken clouds
170,Srivardhan,IN,18.0333,73.0167,79.16,87,100,21.61,light rain
171,Camacha,PT,33.0833,-16.3333,71.02,68,20,16.11,few clouds
172,Port Elizabeth,ZA,-33.918,25.5701,59.31,90,71,1.99,broken clouds
173,Cape Town,ZA,-33.9258,18.4232,57.11,92,75,10.36,broken clouds
174,Lorengau,PG,-2.0226,147.2712,80.31,80,100,7.07,overcast clouds
175,Gao,ML,16.6362,1.637,97.84,28,50,5.1,scattered clouds
176,Saint Anthony,US,45.0205,-93.218,85.48,54,75,8.05,broken clouds
177,Lavrentiya,RU,65.5833,-171.0,47.73,71,99,7.72,overcast clouds
178,Narsaq,GL,60.9167,-46.05,53.82,55,97,5.61,overcast clouds
179,Banepa,NP,27.6298,85.5214,71.92,94,75,0.0,broken clouds
180,Kulhudhuffushi,MV,6.6221,73.07,81.0,85,38,15.3,scattered clouds
181,Norman Wells,CA,65.282,-126.8329,47.84,87,100,8.99,light rain
182,Vestmannaeyjar,IS,63.4427,-20.2734,52.79,82,0,13.8,clear sky
183,Puruaran,MX,19.1,-101.5333,78.13,64,91,4.5,overcast clouds
184,Vardo,NO,70.3705,31.1107,57.18,94,75,10.36,broken clouds
185,Lompoc,US,34.6391,-120.4579,85.69,66,0,10.36,clear sky
186,Xining,CN,36.6167,101.7667,66.65,90,100,0.34,light rain
187,Palmerston,AU,-12.486,130.9833,71.58,94,40,2.3,scattered clouds
188,Mar Del Plata,AR,-38.0023,-57.5575,57.94,57,75,11.5,broken clouds
189,Bamenda,CM,5.9527,10.1582,65.35,96,100,2.42,moderate rain
190,Jalcocotan,MX,21.4667,-105.1167,83.01,54,80,5.19,broken clouds
191,Humberto De Campos,BR,-2.5983,-43.4611,89.2,50,45,9.15,scattered clouds
192,Lodwar,KE,3.1191,35.5973,89.33,32,99,8.41,overcast clouds
193,Nobres,BR,-14.7203,-56.3275,75.54,32,100,9.86,overcast clouds
194,Mahebourg,MU,-20.4081,57.7,70.25,52,40,18.41,scattered clouds
195,Codrington,AU,-38.2667,141.9667,48.42,90,100,18.41,overcast clouds
196,Ilam,NP,26.9167,87.9167,69.28,91,48,5.64,scattered clouds
197,Matara,LK,5.9485,80.5353,75.52,92,52,6.42,broken clouds
198,Juneau,US,58.3019,-134.4197,57.22,88,100,0.0,overcast clouds
199,Marsa Matruh,EG,31.3525,27.2453,79.99,68,0,11.63,clear sky
200,Kjollefjord,NO,70.9457,27.3465,58.82,88,75,13.8,light intensity drizzle
201,Honolulu,US,21.3069,-157.8583,81.64,75,40,19.57,scattered clouds
202,Plettenberg Bay,ZA,-34.0527,23.3716,57.16,90,89,4.85,overcast clouds
203,Hualmay,PE,-11.0964,-77.6139,67.3,67,15,9.71,few clouds
204,Pontianak,ID,-0.0333,109.3333,75.18,94,100,4.61,overcast clouds
205,Pitea,SE,65.3172,21.4794,68.09,64,100,13.09,overcast clouds
206,Pacifica,US,37.6138,-122.4869,77.43,74,20,11.5,few clouds
207,Tiznit,MA,29.5833,-9.5,75.38,53,0,7.25,clear sky
208,Chitral,PK,35.8462,71.7858,80.82,61,7,3.89,clear sky
209,Caravelas,BR,-17.7125,-39.2481,77.92,60,7,14.52,clear sky
210,Ilulissat,GL,69.2167,-51.1,42.82,87,100,6.91,light intensity drizzle
211,Yulara,AU,-25.2406,130.9889,52.36,63,100,5.48,overcast clouds
212,Karratha,AU,-20.7377,116.8463,65.52,31,0,10.94,clear sky
213,Shiyan,CN,32.6475,110.7781,80.04,76,55,1.32,broken clouds
214,Vila Velha,BR,-20.3297,-40.2925,85.95,65,0,14.97,clear sky
215,Jacareacanga,BR,-6.2222,-57.7528,98.56,27,5,3.96,clear sky
216,Salihorsk,BY,52.7876,27.5415,65.55,62,62,6.69,broken clouds
217,Yichun,CN,47.7,128.9,51.13,97,48,3.06,scattered clouds
218,Pevek,RU,69.7008,170.3133,36.28,97,78,5.06,broken clouds
219,Tungor,RU,53.3808,142.9564,55.85,86,97,6.29,overcast clouds
220,Urubicha,BO,-15.3833,-62.95,81.75,15,0,5.3,clear sky
221,Yuanli,TW,24.4397,120.6535,82.62,89,75,6.91,mist
222,Kralendijk,BQ,12.15,-68.2667,87.78,70,100,18.41,overcast clouds
223,Zarate,AR,-34.0981,-59.0286,61.97,54,83,10.0,broken clouds
224,Fort Saint James,CA,54.4333,-124.25,77.58,37,0,2.42,clear sky
225,Jand,PK,33.4299,72.0193,98.11,38,0,5.7,clear sky
226,Tual,ID,-5.6667,132.75,79.81,79,47,16.8,scattered clouds
227,Ranau,MY,5.9538,116.6641,70.9,95,100,0.45,overcast clouds
228,Talara,PE,-4.5772,-81.2719,75.96,60,0,14.97,clear sky
229,Qaanaaq,GL,77.484,-69.3632,38.17,63,7,3.22,clear sky
230,San Rafael,AR,-34.6177,-68.3301,60.08,28,11,17.54,few clouds
231,Farah,AF,32.5,62.5,84.34,16,0,17.25,clear sky
232,Kushima,JP,31.4583,131.2333,78.71,92,98,1.83,overcast clouds
233,Ola,RU,59.5833,151.2833,55.15,88,95,5.95,overcast clouds
234,Sitka,US,57.0531,-135.33,57.09,82,100,3.44,overcast clouds
235,Moyale,KE,3.5167,39.0584,70.25,62,92,10.8,overcast clouds
236,Tabuk,PH,17.4189,121.4443,75.11,92,100,0.76,overcast clouds
237,Vila Franca Do Campo,PT,37.7167,-25.4333,75.61,67,39,7.07,scattered clouds
238,Porto Belo,BR,-27.1578,-48.5531,59.25,89,100,25.41,moderate rain
239,Pimentel,PE,-6.8367,-79.9342,70.09,64,0,14.97,clear sky
240,Ntcheu,MW,-14.8203,34.6359,63.5,39,0,2.59,clear sky
241,Portel,BR,-1.9356,-50.8211,94.14,36,31,4.18,scattered clouds
242,Bahir Dar,ET,11.5936,37.3908,60.76,96,100,4.0,light rain
243,Nishihara,JP,26.1842,127.7558,83.48,85,40,4.61,haze
244,Paraopeba,BR,-19.2757,-44.4033,81.25,36,97,14.45,heavy intensity rain
245,College,US,64.8569,-147.8028,53.1,76,20,1.01,few clouds
246,Ostrovnoy,RU,68.0531,39.5131,59.11,84,87,18.61,light rain
247,Aquiraz,BR,-3.9014,-38.3911,87.46,65,9,13.24,clear sky
248,Portland,US,45.5234,-122.6762,69.82,73,100,7.0,overcast clouds
249,Grafton,US,42.207,-71.6856,80.67,66,100,4.61,overcast clouds
250,Toropets,RU,56.4978,31.6353,61.83,72,100,4.61,overcast clouds
251,Grand Gaube,MU,-20.0064,57.6608,70.38,60,49,10.0,scattered clouds
252,Beyneu,KZ,45.3167,55.2,88.97,22,7,10.74,clear sky
253,Narasannapeta,IN,18.4167,84.05,79.36,85,100,7.65,overcast clouds
254,Nouadhibou,MR,20.931,-17.0347,76.98,69,0,23.02,sand
255,Sibolga,ID,1.7427,98.7792,75.76,85,56,3.91,broken clouds
256,Khomutovka,RU,51.9207,34.5619,62.91,94,100,8.99,overcast clouds
257,Saint-Augustin,CA,51.226,-58.6502,66.81,47,1,10.74,clear sky
258,Parana,AR,-31.732,-60.5238,64.54,50,62,9.28,broken clouds
259,Nagato,JP,34.3833,131.2,79.74,85,100,7.78,overcast clouds
260,Orlik,RU,52.5178,99.825,47.41,85,19,0.2,few clouds
261,Qaqortoq,GL,60.7167,-46.0333,47.48,65,97,5.86,overcast clouds
262,La Maddalena,IT,41.2142,9.4083,84.25,58,42,2.39,scattered clouds
263,Bethel,US,41.3712,-73.414,86.14,56,75,0.0,broken clouds
264,Bengkulu,ID,-3.8004,102.2655,75.51,90,39,4.56,scattered clouds
265,Uchiza,PE,-8.4592,-76.4633,70.95,97,83,1.05,broken clouds
266,Plainview,US,40.7765,-73.4673,86.52,63,100,6.91,overcast clouds
267,Graaff-Reinet,ZA,-32.2522,24.5308,61.57,23,79,2.46,broken clouds
268,Pangnirtung,CA,66.1451,-65.7125,45.19,81,90,2.15,overcast clouds
269,Touros,BR,-5.1989,-35.4608,81.55,57,3,15.12,clear sky
270,Provideniya,RU,64.3833,-173.3,50.23,89,100,6.13,overcast clouds
271,Coquimbo,CL,-29.9533,-71.3436,56.93,82,40,11.5,scattered clouds
272,Columbus,US,39.9612,-82.9988,77.11,87,100,6.91,mist
273,Kununurra,AU,-15.7667,128.7333,62.58,88,36,0.0,scattered clouds
274,Falun,SE,60.6036,15.626,70.95,77,78,10.54,broken clouds
275,Labuhan,ID,-6.8844,112.2051,77.67,87,57,7.34,broken clouds
276,Saint George,US,37.1041,-113.5841,92.43,39,0,4.0,clear sky
277,San Patricio,US,28.017,-97.5169,96.19,39,6,7.96,clear sky
278,Uusikaupunki,FI,60.8004,21.4084,64.89,82,100,13.2,overcast clouds
279,Flinders,AU,-34.5833,150.8552,53.38,84,100,1.99,overcast clouds
280,Haines Junction,CA,60.7522,-137.5108,46.78,95,100,3.2,light rain
281,Airai,TL,-8.9266,125.4092,57.9,52,44,1.72,scattered clouds
282,Busca,IT,44.5181,7.4743,77.58,67,20,5.75,few clouds
283,Bandarbeyla,SO,9.4942,50.8122,77.88,81,82,33.04,broken clouds
284,Porbandar,IN,21.6422,69.6093,80.13,92,100,13.8,overcast clouds
285,Hayden,US,47.766,-116.7866,86.49,54,0,5.75,clear sky
286,Ruwi,OM,23.5996,58.5507,91.51,64,96,8.08,overcast clouds
287,Yangambi,CD,0.8102,24.4336,80.78,60,94,1.32,overcast clouds
288,Broome,US,42.2506,-75.833,78.19,62,100,9.22,overcast clouds
289,Viransehir,TR,37.2353,39.7631,89.62,38,0,15.28,clear sky
290,Bambous Virieux,MU,-20.3428,57.7575,70.21,52,40,18.41,scattered clouds
291,Bambanglipuro,ID,-7.95,110.2833,76.35,91,61,7.9,broken clouds
292,Megion,RU,61.0296,76.1136,57.22,62,4,9.84,clear sky
293,Bago,MM,17.3367,96.4797,75.83,94,100,4.03,overcast clouds
294,Kattivakkam,IN,13.2167,80.3167,87.89,80,99,14.32,overcast clouds
295,Port Macquarie,AU,-31.4333,152.9167,44.89,88,63,4.9,broken clouds
296,Lodja,CD,-3.4833,23.4333,82.06,28,39,0.83,scattered clouds
297,Nanortalik,GL,60.1432,-45.2371,45.75,76,63,7.58,broken clouds
298,Bacolod,PH,10.6667,122.95,77.58,84,91,2.66,overcast clouds
299,Kamenka,RU,51.3223,42.7678,77.77,40,90,10.87,overcast clouds
300,Abu Samrah,SY,35.3029,37.1841,78.33,53,0,16.17,clear sky
301,Lozova,UA,48.8894,36.3176,79.59,35,100,13.15,overcast clouds
302,Talnakh,RU,69.4865,88.3972,49.21,84,100,5.77,overcast clouds
303,Isangel,VU,-19.55,169.2667,71.71,83,40,6.91,scattered clouds
304,Dubbo,AU,-32.25,148.6167,50.13,81,91,11.5,overcast clouds
305,Samarai,PG,-10.6167,150.6667,78.01,75,99,16.64,overcast clouds
306,Jinchang,CN,38.4953,102.1739,74.53,71,98,6.69,overcast clouds
307,Ewa Beach,US,21.3156,-158.0072,81.77,69,40,19.57,scattered clouds
308,Hovd,MN,48.0056,91.6419,70.3,32,100,5.06,overcast clouds
309,Sao Filipe,CV,14.8961,-24.4956,78.96,87,74,7.45,broken clouds
310,Esperance,AU,-33.8667,121.9,57.07,69,97,22.95,overcast clouds
311,Raudeberg,NO,61.9875,5.1352,63.95,78,100,34.61,overcast clouds
312,Connersville,US,39.6412,-85.1411,81.41,82,90,4.0,overcast clouds
313,Dunedin,NZ,-45.8742,170.5036,40.8,80,100,3.0,overcast clouds
314,Severnyy,RU,50.677,36.5532,75.24,64,0,8.95,clear sky
315,Mangrol,IN,21.1167,70.1167,80.37,92,100,17.47,overcast clouds
316,Key West,US,24.5557,-81.7826,91.4,72,0,14.97,clear sky
317,Gisborne,NZ,-38.6533,178.0042,43.29,83,65,8.14,broken clouds
318,Tautira,PF,-17.7333,-149.15,76.41,76,14,10.13,light rain
319,Nadym,RU,65.5333,72.5167,55.49,57,97,7.49,overcast clouds
320,Malakal,SS,9.5334,31.6605,73.74,94,100,4.65,light rain
321,Tuatapere,NZ,-46.1333,167.6833,36.34,90,91,3.4,overcast clouds
322,Fairbanks,US,64.8378,-147.7164,53.1,75,0,1.01,clear sky
323,Saskylakh,RU,71.9167,114.0833,50.5,72,72,10.54,broken clouds
324,Kitgum,UG,3.2783,32.8867,68.95,85,97,4.83,overcast clouds
325,Murakami,JP,38.2333,139.4833,74.41,94,100,3.06,light rain
326,Gatton,AU,-27.55,152.2833,51.64,93,0,3.33,clear sky
327,Madang,PG,-5.2246,145.7966,76.17,92,100,1.66,overcast clouds
328,Luanda,AO,-8.8368,13.2343,69.8,83,0,6.91,clear sky
329,Fuzhou,CN,26.0614,119.3061,82.29,90,46,0.18,scattered clouds
330,Vanimo,PG,-2.6741,141.3028,76.1,92,100,4.27,overcast clouds
331,Paamiut,GL,61.994,-49.6678,42.42,93,90,16.33,light rain
332,Ulladulla,AU,-35.35,150.4667,49.01,87,83,5.84,broken clouds
333,Newala,TZ,-10.9431,39.2787,65.77,70,97,10.8,overcast clouds
334,Riyadh,SA,24.6877,46.7219,105.94,11,74,11.5,broken clouds
335,Ulaangom,MN,49.9811,92.0667,67.41,46,95,3.4,overcast clouds
336,Mogadishu,SO,2.0371,45.3438,76.46,85,92,17.11,overcast clouds
337,Japura,ID,-0.3167,102.35,75.22,91,48,1.43,scattered clouds
338,Isoka,ZM,-10.1606,32.6335,61.66,42,3,0.96,clear sky
339,Prince Albert,CA,53.2001,-105.7677,69.46,46,61,6.78,broken clouds
340,Husavik,IS,66.0449,-17.3389,46.11,86,98,14.67,overcast clouds
341,Mareeba,AU,-17.0,145.4333,63.32,92,35,2.15,scattered clouds
342,Yinchuan,CN,38.4681,106.2731,75.15,71,2,3.76,clear sky
343,Clyde River,CA,70.4692,-68.5914,44.13,66,86,3.04,overcast clouds
344,Korla,CN,41.7597,86.1469,89.98,24,82,14.16,broken clouds
345,Road Town,VG,18.4167,-64.6167,89.69,70,20,11.5,few clouds
346,Ibra,OM,22.6906,58.5334,92.86,36,84,10.65,broken clouds
347,Puerto Escondido,MX,15.85,-97.0667,86.83,62,40,5.75,scattered clouds
348,Klang,MY,3.0333,101.45,80.74,83,20,0.0,few clouds
349,Dir,PK,35.2058,71.8756,73.71,76,1,3.22,clear sky
350,Manjakandriana,MG,-18.9167,47.8,51.49,90,91,8.97,overcast clouds
351,Negombo,LK,7.2083,79.8358,80.65,83,0,4.61,clear sky
352,Agadez,NE,19.75,10.25,100.72,17,27,6.91,scattered clouds
353,Longonjo,AO,-12.9067,15.2533,68.58,14,0,4.56,clear sky
354,Brigantine,US,39.4101,-74.3646,88.2,63,0,12.66,clear sky
355,Nakskov,DK,54.8373,11.1284,69.15,69,24,1.92,few clouds
356,Gazli,UZ,40.1333,63.45,82.9,22,0,15.52,clear sky
357,Bossier City,US,32.516,-93.7321,84.45,81,0,4.61,thunderstorm
358,Trinidad,BO,-14.8333,-64.9,75.18,41,2,9.22,clear sky
359,Progreso,MX,21.2833,-89.6667,90.1,57,23,4.99,few clouds
360,Bilma,NE,18.6853,12.9164,101.3,15,45,4.34,scattered clouds
361,Burgeo,CA,47.6167,-57.6152,63.88,70,40,11.12,scattered clouds
362,Sussex,US,41.1834,-74.6663,85.51,60,40,3.44,scattered clouds
363,Sao Gabriel Da Cachoeira,BR,-0.1303,-67.0892,82.2,83,20,6.91,thunderstorm
364,Luwingu,ZM,-10.2621,29.9271,64.18,28,15,3.47,few clouds
365,Manggar,ID,-2.8833,108.2667,81.72,82,100,10.11,overcast clouds
366,Staszow,PL,50.5631,21.1659,70.63,62,98,10.74,overcast clouds
367,Cavalcante,BR,-13.7975,-47.4583,91.08,19,37,6.44,scattered clouds
368,Nsanje,MW,-16.92,35.262,74.01,48,0,5.93,clear sky
369,Luderitz,NA,-26.6481,15.1594,58.17,72,30,13.62,scattered clouds
370,Barranca,PE,-10.75,-77.7667,66.04,68,18,10.22,few clouds
371,Provost,CA,52.3501,-110.2683,73.11,40,97,12.35,overcast clouds
372,Olinda,BR,-8.0089,-34.8553,80.33,65,20,10.36,few clouds
373,Mirnyy,RU,62.5353,113.9611,53.24,81,81,7.0,broken clouds
374,Ler,SS,8.3018,30.1418,76.39,86,100,4.12,light rain
375,Panguipulli,CL,-39.6333,-72.3333,53.85,54,98,3.06,overcast clouds
376,Knysna,ZA,-34.0363,23.0471,58.08,91,96,3.71,light rain
377,Chicama,PE,-7.8447,-79.1469,61.34,62,55,9.8,broken clouds
378,Hobyo,SO,5.3505,48.5268,77.02,82,64,22.19,broken clouds
379,Ahipara,NZ,-35.1667,173.1667,48.85,87,90,7.85,light rain
380,Kelheim,DE,48.9167,11.8667,77.85,42,10,9.4,clear sky
381,Ust-Tarka,RU,55.5672,75.705,63.1,91,75,7.61,light rain
382,Lata,PT,40.1629,-8.3327,76.68,59,1,7.83,clear sky
383,Natchez,US,31.5604,-91.4032,80.26,89,100,4.61,light rain
384,Quatre Cocos,MU,-20.2078,57.7625,70.09,70,72,22.53,broken clouds
385,Cururupu,BR,-1.8283,-44.8683,85.77,60,26,7.85,scattered clouds
386,Manokwari,ID,-0.8667,134.0833,77.04,79,70,3.62,broken clouds
387,Tvoroyri,FO,61.5556,-6.8111,52.99,85,100,24.76,overcast clouds
388,Ojinaga,MX,29.5667,-104.4167,97.41,36,40,9.22,scattered clouds
389,Maridi,SS,4.9158,29.4742,68.47,95,93,3.58,light rain
390,Turka,UA,49.1541,23.0297,58.17,70,85,3.74,overcast clouds
391,Uvinza,TZ,-5.1036,30.3911,74.03,42,94,3.53,overcast clouds
392,Gewane,ET,10.1664,40.6453,82.09,48,100,14.52,overcast clouds
393,Presidencia Roque Saenz Pena,AR,-26.7852,-60.4388,68.13,34,3,5.5,clear sky
394,Misratah,LY,32.3754,15.0925,83.48,63,0,8.3,clear sky
395,Caraballeda,VE,10.6112,-66.8522,86.86,76,77,8.95,broken clouds
396,Altay,CN,47.8667,88.1167,70.93,45,100,2.73,overcast clouds
397,Catia La Mar,VE,10.6038,-67.0303,86.99,89,77,8.95,broken clouds
398,Oistins,BB,13.0667,-59.5333,87.89,66,40,11.5,scattered clouds
399,Buarcos,PT,40.166,-8.8768,75.67,78,4,4.56,clear sky
400,Linkou,CN,45.3,130.2833,60.33,81,68,5.84,light rain
401,Zyryanka,RU,65.75,150.85,62.04,74,100,4.5,overcast clouds
402,Bilibino,RU,68.0546,166.4372,57.81,94,36,1.63,scattered clouds
403,Mazagao,BR,-0.115,-51.2894,91.45,42,66,4.72,broken clouds
404,Leh,IN,34.1667,77.5833,71.49,34,28,5.37,scattered clouds
405,Maymyo,MM,22.0333,96.4667,65.35,96,35,0.81,scattered clouds
406,Ponta Delgada,PT,37.7333,-25.6667,75.92,57,20,13.8,few clouds
407,Antofagasta,CL,-23.65,-70.4,60.08,64,30,6.4,scattered clouds
408,Aswan,EG,24.0934,32.907,100.47,19,78,14.29,broken clouds
409,Bodden Town,KY,19.2833,-81.25,89.6,75,40,14.97,scattered clouds
410,Svetlaya,RU,46.5389,138.3297,64.9,68,40,5.1,scattered clouds
411,Berkak,NO,62.825,10.0118,67.12,66,100,3.67,overcast clouds
412,Krasnooktyabrskiy,RU,44.9328,38.3712,87.1,39,63,5.14,broken clouds
413,Heiligenhafen,DE,54.3667,10.9833,69.75,79,20,7.78,few clouds
414,Filadelfia,US,39.9523,-75.1638,92.21,55,75,9.22,broken clouds
415,Oktyabrskiy,RU,54.4815,53.471,66.76,84,87,3.4,overcast clouds
416,Tam Ky,VN,15.5667,108.4833,77.0,90,100,5.64,overcast clouds
417,Manakara,MG,-22.1333,48.0167,67.59,72,96,8.34,overcast clouds
418,Olafsvik,IS,64.8945,-23.7142,48.6,81,93,10.2,overcast clouds
419,Kant,IN,27.8,79.8,86.81,62,81,13.53,broken clouds
420,Fort Nelson,CA,58.8053,-122.7002,77.38,38,40,3.04,scattered clouds
421,Lubango,AO,-14.9172,13.4925,64.11,18,0,2.17,clear sky
422,Tabou,CI,4.423,-7.3528,76.19,78,97,10.67,overcast clouds
423,Sakaraha,MG,-22.9,44.5333,67.82,57,80,3.33,broken clouds
424,Nambiyur,IN,11.3667,77.3333,80.19,75,82,7.94,broken clouds
425,Newport,GB,51.5877,-2.9984,88.12,33,8,7.07,clear sky
426,Abha,SA,18.2164,42.5053,69.62,88,98,5.75,overcast clouds
427,Mezen,RU,65.8522,44.24,58.23,71,95,3.94,overcast clouds
428,Leningradskiy,RU,69.3833,178.4167,41.63,92,98,4.56,overcast clouds
429,Teknaf,BD,20.8624,92.3058,77.47,91,99,7.87,overcast clouds
430,Bend,US,44.0582,-121.3153,81.61,36,0,8.05,clear sky
431,Hamilton,US,39.1834,-84.5333,83.43,77,75,9.22,broken clouds
432,Berlevag,NO,70.8578,29.0864,60.75,82,75,10.36,broken clouds
433,Krasnoselkup,RU,65.7,82.4667,48.63,65,24,10.29,few clouds
434,Gunjur,GM,13.2019,-16.7339,86.07,79,75,9.22,broken clouds
435,Athabasca,CA,54.7169,-113.2854,72.19,51,0,9.26,clear sky
436,Vao,NC,-22.6667,167.4833,68.22,55,12,19.51,few clouds
437,Thakurgaon,BD,26.0333,88.4667,81.43,76,6,14.79,clear sky
438,Menzelinsk,RU,55.7271,53.1026,69.33,76,42,3.27,scattered clouds
439,Port Lincoln,AU,-34.7333,135.8667,51.42,79,75,19.64,broken clouds
440,Saryg-Sep,RU,51.5,95.6,55.51,74,70,3.83,broken clouds
441,Popova,RU,42.9603,131.7228,70.11,76,83,2.77,broken clouds
442,San Pedro,PH,14.35,121.0167,80.35,88,75,2.3,broken clouds
443,Havre-Saint-Pierre,CA,50.2334,-63.5986,63.25,74,1,7.92,clear sky
444,Tanout,NE,14.9709,8.8879,94.46,31,94,5.95,overcast clouds
445,Voskehask,AM,40.7643,43.7747,66.45,59,3,27.63,clear sky
446,Kenmore,US,47.7573,-122.244,68.16,82,100,12.66,overcast clouds
447,Sergeyevka,KZ,53.88,67.4158,62.73,88,74,6.49,broken clouds
448,Bereda,ES,43.2686,-7.5406,77.41,79,59,6.38,broken clouds
449,Marzuq,YE,14.4,46.4667,79.9,64,52,7.02,light rain
450,Aromashevo,RU,56.8602,68.6375,64.47,85,42,3.2,scattered clouds
451,Mayumba,GA,-3.432,10.6554,70.0,91,45,6.73,scattered clouds
452,Cantapoy,PH,9.4906,125.4364,79.74,79,78,1.57,broken clouds
453,Thyolo,MW,-16.0678,35.1405,63.63,47,0,4.05,clear sky
454,Sao Felix Do Xingu,BR,-6.6447,-51.995,100.44,17,8,4.16,clear sky
455,Mecca,SA,21.4267,39.8261,91.62,51,82,7.74,broken clouds
456,Lapi,PH,17.716,121.8978,75.38,96,100,2.21,moderate rain
457,Buncrana,IE,55.1333,-7.45,67.24,67,40,4.97,scattered clouds
458,Xichang,CN,27.8964,102.2634,66.85,85,97,2.21,overcast clouds
459,Fond Du Lac,US,43.775,-88.4388,83.48,57,20,8.05,few clouds
460,Adrar,MR,20.5022,-10.0711,106.61,10,14,8.61,few clouds
461,Bathsheba,BB,13.2167,-59.5167,88.41,66,40,11.5,scattered clouds
462,Aksu,CN,41.1231,80.2644,76.24,42,51,8.88,broken clouds
463,Bougouni,ML,11.417,-7.479,81.61,79,86,0.96,light rain
464,Dahuk,IQ,36.8695,42.994,88.21,21,0,6.26,clear sky
465,San Andres,CO,12.5847,-81.7006,87.82,74,40,13.8,scattered clouds
466,Tsabong,BW,-26.0217,22.401,68.54,17,4,6.78,clear sky
467,Kinablangan,PH,7.6947,126.5503,77.79,83,17,3.85,few clouds
468,Wajima,JP,37.4,136.9,80.29,84,100,8.46,overcast clouds
469,Ayan,RU,56.45,138.1667,55.02,96,100,5.26,overcast clouds
470,Emba,KZ,48.8264,58.1442,78.58,33,44,8.55,scattered clouds
471,Komsomolskiy,UZ,40.4272,71.7189,83.12,30,12,4.61,few clouds
472,Bojnurd,IR,37.4747,57.329,73.35,31,0,4.61,clear sky
473,Gamba,GA,-2.65,10.0,70.68,88,56,8.75,broken clouds
474,Beloha,MG,-25.1667,45.05,71.22,49,53,13.04,broken clouds
475,Kloulklubed,PW,7.0419,134.2556,75.7,75,48,6.85,scattered clouds
476,Batemans Bay,AU,-35.7167,150.1833,52.11,90,95,5.23,overcast clouds
477,Kanata,CA,45.3159,-75.8985,78.51,62,12,5.99,few clouds
478,Qazvin,IR,36.2797,50.0049,73.31,58,0,10.11,clear sky
479,Ilebo,CD,-4.3167,20.5833,82.26,23,33,1.48,scattered clouds
480,Tongliao,CN,43.6125,122.2653,65.84,91,100,5.79,overcast clouds
481,Poum,NC,-20.2333,164.0167,69.22,58,0,22.48,clear sky
482,Marabba,SD,12.35,32.1833,81.97,69,96,12.21,overcast clouds
483,Lao Cai,VN,22.4833,103.95,77.07,96,100,2.44,overcast clouds
484,Guarapari,BR,-20.6667,-40.4975,81.9,43,62,13.06,broken clouds
485,At-Bashi,KG,41.1702,75.8106,59.83,51,65,2.3,broken clouds
486,Anloga,GH,5.7947,0.8973,75.27,84,33,13.31,scattered clouds
487,Plean,GB,56.0652,-3.876,77.52,53,64,8.81,broken clouds
488,Nome,US,64.5011,-165.4064,48.27,93,100,12.66,overcast clouds
489,Viedma,AR,-40.8135,-62.9967,62.01,33,82,23.04,broken clouds
490,Urucara,BR,-2.5364,-57.76,98.96,23,20,4.76,few clouds
491,Gwanda,ZW,-20.9333,29.0,62.98,46,0,7.07,clear sky
492,Deg,HU,46.8681,18.4504,76.73,31,56,7.49,broken clouds
493,Eureka,US,40.8021,-124.1637,76.17,64,0,5.01,clear sky
494,Leiyang,CN,26.4024,112.8591,81.01,71,99,5.97,overcast clouds
495,Port Shepstone,ZA,-30.7414,30.455,66.97,77,79,9.98,broken clouds
496,Menongue,AO,-14.6585,17.691,64.06,18,0,4.7,clear sky
497,Contamana,PE,-7.3333,-75.0167,76.48,92,95,6.2,overcast clouds
498,Tura,IN,25.5198,90.2201,74.79,88,45,7.61,scattered clouds
499,Caluquembe,AO,-13.7833,14.6833,66.18,14,0,2.17,clear sky
500,Hailar,CN,49.2,119.7,57.15,74,99,5.75,overcast clouds
501,Inhambane,MZ,-23.865,35.3833,69.78,88,20,4.61,few clouds
502,Chernyshevskiy,RU,63.0128,112.4714,51.06,90,96,2.48,overcast clouds
503,Imbituba,BR,-28.24,-48.6703,60.85,99,100,15.99,overcast clouds
504,Guangyuan,CN,32.442,105.823,78.98,86,100,3.47,overcast clouds
505,Bernburg,DE,51.8,11.7333,82.47,31,11,7.14,few clouds
506,Poso,ID,-1.3959,120.7524,77.56,82,89,3.74,overcast clouds
507,Yamada,JP,39.4667,141.95,76.15,85,91,6.22,light rain
508,Dushanbe,TJ,38.5577,68.7797,71.42,46,1,6.71,clear sky
509,Romny,UA,50.751,33.4747,63.41,83,100,10.02,overcast clouds
510,Kailua,US,21.4022,-157.7394,81.81,78,7,7.0,clear sky
511,Yerbogachen,RU,61.2767,108.0108,55.29,82,100,3.67,overcast clouds
512,Arawa,PG,-6.2132,155.5367,76.33,90,66,2.86,broken clouds
513,Yumen,CN,40.2833,97.2,80.85,47,6,17.4,clear sky
514,Morrope,PE,-6.5417,-80.0111,69.91,59,47,14.67,scattered clouds
515,Yatou,CN,37.15,122.3833,71.31,93,100,0.6,overcast clouds
516,Iquitos,PE,-3.7481,-73.2472,86.04,74,75,6.91,broken clouds
517,Tarakan,ID,3.3,117.6333,78.3,94,20,2.3,few clouds
518,Maningrida,AU,-12.0667,134.2667,70.34,94,2,7.38,clear sky
519,Guerrero Negro,MX,27.9769,-114.0611,83.07,54,48,12.68,scattered clouds
520,Mason City,US,43.1536,-93.201,82.67,56,0,4.61,clear sky
521,Praya,CV,14.9215,-23.5087,84.74,74,75,13.8,broken clouds
522,Opuwo,NA,-18.0607,13.84,72.99,16,0,7.09,clear sky
523,Dongsheng,CN,39.8161,109.9776,66.69,89,10,4.45,clear sky
524,Faanui,PF,-16.4833,-151.75,76.44,73,0,5.37,light rain
525,Padang,ID,-0.9492,100.3543,77.88,84,36,3.58,scattered clouds
526,Pizarro,CO,4.9533,-77.366,81.16,81,85,7.87,light rain
527,Dawlatabad,AF,36.4141,64.9053,79.95,19,0,8.81,clear sky
528,Hofn,IS,64.2539,-15.2082,55.42,71,20,13.8,haze
529,Valdivia,CL,-39.8142,-73.2459,44.69,67,71,3.83,broken clouds
530,Sungairaya,ID,0.7,108.9,79.25,87,99,4.88,light rain
531,Herzberg,DE,51.6869,13.2202,79.32,32,20,8.55,few clouds
532,Mountain Home,US,43.133,-115.6912,81.88,44,75,5.75,broken clouds
533,Tranas,SE,58.0372,14.9782,72.39,56,14,6.31,few clouds
534,Palasa,IN,18.7667,84.4167,78.91,85,100,6.2,overcast clouds
535,Ambon,ID,-3.6954,128.1814,76.23,16,40,5.75,scattered clouds
536,Tadine,NC,-21.55,167.8833,65.71,62,0,16.84,clear sky
537,Darhan,MN,49.4867,105.9228,59.4,93,99,5.23,overcast clouds
538,Nuuk,GL,64.1835,-51.7216,41.61,100,100,4.61,fog
539,Nenjiang,CN,49.1833,125.2167,57.81,76,100,2.62,overcast clouds
540,Cap-Aux-Meules,CA,47.3821,-61.8597,64.04,81,67,13.53,broken clouds
541,La Ronge,CA,55.1001,-105.2842,60.55,52,8,3.91,clear sky
542,Kirkwall,GB,58.9848,-2.9587,62.65,82,40,25.32,scattered clouds
543,Tessalit,ML,20.1986,1.0114,101.3,19,61,2.91,light rain
544,The Valley,AI,18.217,-63.0578,87.66,66,20,16.11,few clouds
545,Benghazi,LY,32.1167,20.0667,83.77,58,0,12.59,clear sky
546,Basco,PH,20.4487,121.9702,83.16,76,69,4.23,broken clouds
547,Kampong Thum,KH,12.7111,104.8887,75.04,95,100,4.76,overcast clouds
548,Maumere,ID,-8.6199,122.2111,78.48,80,79,3.11,broken clouds
549,Abdulino,RU,53.7,53.6667,69.93,68,44,3.85,scattered clouds
550,Sabang,ID,5.8933,95.3214,82.51,75,80,17.47,broken clouds
551,Avera,US,33.194,-82.5271,89.11,59,100,7.49,overcast clouds
552,Toora-Khem,RU,52.4675,96.11,52.92,74,9,0.49,clear sky
553,Burevestnik,RU,56.144,43.7883,65.95,94,40,2.24,scattered clouds
554,Birin,NP,26.8865,88.0718,63.66,91,47,6.38,scattered clouds
555,Salalah,OM,17.0151,54.0924,78.69,86,99,6.44,overcast clouds
556,San Juan,AR,-31.5375,-68.5364,68.43,16,45,8.28,scattered clouds
557,Bubaque,GW,11.2833,-15.8333,80.94,84,79,14.76,broken clouds
558,Kaeo,NZ,-35.1,173.7833,49.32,93,91,7.94,overcast clouds
559,Necochea,AR,-38.5473,-58.7368,54.99,57,89,15.99,overcast clouds
560,Kudahuvadhoo,MV,2.6708,72.8944,81.86,78,47,5.82,scattered clouds
561,Svetlogorsk,BY,52.6333,29.7333,62.46,69,68,7.34,broken clouds
562,Inirida,CO,3.8653,-67.9239,87.58,63,94,3.11,overcast clouds
563,Ceyhan,TR,37.0247,35.8175,82.74,71,68,4.76,broken clouds
564,Miri,MY,4.4148,114.0089,78.94,94,20,2.3,few clouds
565,Voloshka,RU,61.3314,40.0858,54.16,81,40,3.0,scattered clouds
566,Petatlan,MX,17.5167,-101.2667,85.8,59,100,5.23,overcast clouds
567,Mokrousovo,RU,55.8103,66.7653,63.95,85,15,4.74,few clouds
568,Rota,ES,36.6224,-6.3586,77.09,78,20,11.5,few clouds
569,Phan Thiet,VN,10.9333,108.1,76.68,88,100,7.58,overcast clouds
570,Grindavik,IS,63.8424,-22.4338,50.47,87,75,12.66,light intensity drizzle
571,Ingham,US,42.6,-84.3833,81.91,58,40,5.75,scattered clouds
572,Pala,TD,9.3642,14.9046,74.05,90,100,2.46,moderate rain
573,Joacaba,BR,-27.1781,-51.5047,49.26,98,100,4.83,overcast clouds
574,Linares,CL,-35.85,-71.6,59.79,52,0,3.67,clear sky
575,Luwuk,ID,-0.9516,122.7875,76.66,91,100,5.26,overcast clouds
576,Liverpool,GB,53.4106,-2.9779,81.28,54,0,11.5,clear sky
577,Zabol,AF,32.25,67.25,83.97,30,2,8.59,clear sky
578,Pasighat,IN,28.0667,95.3333,78.08,88,40,2.3,scattered clouds
579,Lewisporte,CA,49.2499,-55.0482,68.7,46,0,7.85,clear sky
580,Januaria,BR,-15.4833,-44.3667,94.41,15,18,4.12,few clouds
581,Ust-Ishim,RU,57.6935,71.1665,62.31,66,17,6.46,few clouds
582,Zhicheng,CN,30.2956,111.5047,82.6,65,90,4.21,overcast clouds
583,Saint-Georges,GD,12.0564,-61.7485,85.68,79,20,16.11,few clouds
584,Kamaishi,JP,39.2667,141.8833,75.65,88,100,7.34,overcast clouds
585,Serebryansk,KZ,49.6925,83.2892,62.49,73,8,2.21,clear sky
586,Mongo,TD,12.1844,18.693,75.6,78,96,3.71,overcast clouds
587,Monterey,US,36.2505,-121.2516,83.17,26,0,3.6,clear sky
588,Wagga Wagga,AU,-35.1167,147.3667,48.85,70,100,6.98,moderate rain
589,Veraval,IN,20.9,70.3667,80.87,92,100,20.24,overcast clouds
590,Tartagal,AR,-22.5164,-63.8013,70.21,23,0,7.7,clear sky
591,Troitsko-Pechorsk,RU,62.7084,56.1964,58.19,74,100,4.63,light rain
592,Rivera,UY,-30.9053,-55.5508,56.71,64,3,9.31,clear sky
593,Phangnga,TH,8.4509,98.5298,82.44,94,100,2.77,overcast clouds
594,Mildura,AU,-34.2,142.15,52.07,75,100,13.35,light rain
595,Jalu,LY,29.0331,21.5482,90.21,26,0,10.31,clear sky
596,Yar-Sale,RU,66.8333,70.8333,49.05,72,26,4.16,scattered clouds
597,Makokou,GA,0.5738,12.8642,75.99,68,85,2.59,overcast clouds
598,Aguimes,ES,27.9054,-15.4461,76.66,69,20,26.46,few clouds
599,Micheweni,TZ,-4.9667,39.8333,74.14,84,35,10.69,scattered clouds
600,Pauini,BR,-7.7136,-66.9764,89.29,41,23,5.68,few clouds
601,Sulangan,PH,11.1373,123.7228,82.83,74,100,4.79,overcast clouds
602,Makakilo City,US,21.3469,-158.0858,80.35,68,100,19.57,overcast clouds
603,Beawar,IN,26.1,74.3167,84.34,63,92,12.08,overcast clouds
604,Kikuyu,KE,-1.2458,36.6633,61.23,68,75,11.5,broken clouds
605,Buta,CD,2.7858,24.73,75.27,76,100,1.32,overcast clouds
606,Gat,IL,31.61,34.7642,81.81,100,2,5.32,clear sky
607,Banda Aceh,ID,5.5577,95.3222,78.6,83,85,11.03,overcast clouds
608,Sumbe,AO,-11.2061,13.8437,68.65,88,0,8.25,clear sky
609,La Baule-Escoublac,FR,47.2922,-2.364,91.06,26,0,13.8,clear sky
610,Trat,TH,12.5,102.5,74.44,98,100,3.09,light rain
611,Melito Di Porto Salvo,IT,37.9222,15.7714,82.96,54,20,4.61,few clouds
612,Rach Gia,VN,10.0167,105.0833,80.19,80,100,12.1,light rain
613,Sapucaia,BR,-29.8333,-51.15,64.33,61,75,12.66,broken clouds
614,Pancas,BR,-19.225,-40.8514,90.95,26,97,9.24,overcast clouds
615,Ubud,ID,-8.5098,115.2654,76.32,98,55,2.33,broken clouds
616,Jiuquan,CN,39.7432,98.5174,78.37,56,6,5.03,clear sky
617,Sosnogorsk,RU,63.6023,53.8817,52.16,95,100,5.75,moderate rain
618,Puerto Narino,CO,-3.7703,-70.3831,81.23,83,46,6.46,scattered clouds
619,Vangaindrano,MG,-23.35,47.6,66.24,81,100,7.7,light rain
620,Arnes,NO,60.1211,11.4663,72.48,78,7,8.03,clear sky
621,Puerto Leguizamo,CO,-0.1934,-74.7819,81.28,79,80,1.59,broken clouds
622,Denpasar,ID,-8.65,115.2167,78.46,94,40,6.91,scattered clouds
623,Sola,VU,-13.8833,167.55,75.87,94,100,9.22,moderate rain
624,Bonthe,SL,7.5264,-12.505,76.48,90,99,9.86,moderate rain
625,Segezha,RU,63.7415,34.3222,59.58,67,97,9.35,overcast clouds
626,Dawei,MM,14.0833,98.2,75.61,95,100,0.6,overcast clouds
627,Srednekolymsk,RU,67.45,153.6833,61.07,73,15,4.92,few clouds
628,Okmulgee,US,35.6234,-95.9605,93.83,49,40,9.22,scattered clouds
629,Muroran,JP,42.3172,140.9881,69.64,93,11,5.55,few clouds
630,Akdepe,TM,42.0551,59.3788,78.89,37,0,9.37,clear sky
631,Copiapo,CL,-27.3667,-70.3333,56.89,19,25,4.63,scattered clouds
632,Mahon,ES,39.8885,4.2658,84.76,58,0,6.91,clear sky
633,Port Augusta,AU,-32.5,137.7667,48.72,73,4,7.58,clear sky
634,Spirit River,CA,55.7833,-118.8361,78.66,35,0,5.73,clear sky
635,Udachnyy,RU,66.4167,112.4,59.45,71,100,3.85,overcast clouds
636,Miyang,CN,24.4042,103.4428,65.48,96,85,5.03,overcast clouds
637,Lahij,YE,13.1667,44.5833,85.23,53,100,13.89,light rain
638,Pecos,US,31.4229,-103.4932,95.09,26,40,13.8,scattered clouds
639,Buala,SB,-8.145,159.5921,77.92,83,44,3.53,light rain
640,Masindi,UG,1.6744,31.715,72.23,65,100,3.58,overcast clouds
641,Mago,RU,53.2514,140.1822,52.79,96,100,3.29,overcast clouds
642,Markova,UA,48.6758,24.4138,57.09,82,89,2.64,overcast clouds
643,Mahalapye,BW,-23.1041,26.8142,64.83,33,0,6.46,clear sky
644,Springbok,ZA,-29.6643,17.8865,49.24,60,78,3.09,broken clouds
645,Pacific Grove,US,36.6177,-121.9166,78.35,72,0,10.0,clear sky
646,Barcelos,PT,41.5388,-8.6151,80.92,89,22,3.18,few clouds
647,Bandar-E Lengeh,IR,26.5579,54.8807,95.11,71,100,6.91,haze
648,Nueve De Julio,AR,-35.4444,-60.8831,60.96,50,100,4.0,overcast clouds
649,Kavaratti,IN,10.5669,72.642,81.79,80,99,23.13,overcast clouds
650,Namwala,ZM,-15.7504,26.4384,68.23,26,0,5.57,clear sky
651,El Alto,PE,-4.2714,-81.2147,73.06,73,37,15.03,scattered clouds
652,Nemuro,JP,43.3236,145.575,65.93,98,82,10.83,broken clouds
653,Zhezkazgan,KZ,47.8043,67.7144,66.79,63,78,10.22,broken clouds
654,Santa Catarina De Tepehuanes,MX,25.35,-105.7333,79.86,37,23,11.39,few clouds
655,Changping,CN,40.2186,116.2197,71.24,88,0,2.51,clear sky
656,Miyako,JP,39.6367,141.9525,75.52,82,99,5.66,overcast clouds
657,Romanovskaya,RU,47.5426,42.0285,84.56,31,53,8.08,broken clouds
658,Farafangana,MG,-22.8167,47.8333,68.16,74,100,10.89,light rain
659,Sinnamary,GF,5.3833,-52.95,82.9,76,38,10.92,scattered clouds
660,Troitskoye,RU,52.9821,84.6757,63.14,81,92,3.18,overcast clouds
661,Anadyr,RU,64.75,177.4833,59.5,77,0,4.47,clear sky
662,Maryville,US,35.7565,-83.9705,77.14,85,100,14.97,light rain
663,Panama City,PA,8.9936,-79.5197,89.55,68,40,4.61,scattered clouds
664,Beringovskiy,RU,63.05,179.3167,54.41,82,9,8.68,clear sky
665,Meadow Lake,US,34.8014,-106.5436,86.4,37,84,6.46,broken clouds
666,Oleksandrivka,UA,48.9634,32.2349,66.78,69,100,13.42,overcast clouds
667,Wanning,CN,18.8003,110.3967,79.05,90,100,14.85,light rain
668,Morondava,MG,-20.2833,44.2833,71.78,63,0,13.51,clear sky
669,Kapuskasing,CA,49.4169,-82.4331,69.35,51,65,10.02,broken clouds
670,Mehamn,NO,71.0357,27.8492,60.71,94,40,14.97,light rain
671,Jimma,ET,7.6667,36.8333,60.48,98,100,1.19,light rain
672,Brezovo,BG,42.35,25.0833,76.19,63,61,3.8,broken clouds
673,Honningsvag,NO,70.9821,25.9704,56.95,82,75,2.3,light rain
674,Pacocha,PE,-17.5833,-71.3333,59.14,72,100,4.61,overcast clouds
675,Barcelona,ES,41.3888,2.159,92.53,65,20,9.22,few clouds
676,Goderich,CA,43.7501,-81.7165,72.91,65,0,7.7,clear sky
677,Namuac,PH,18.6109,121.1657,78.69,84,100,2.39,overcast clouds
678,Teguldet,RU,57.3064,88.1667,60.93,89,8,4.07,clear sky
679,Lagoa,PT,39.05,-27.9833,71.17,70,71,8.16,broken clouds
680,Jining,CN,35.405,116.5814,72.84,91,75,3.18,broken clouds
681,Ossora,RU,59.2353,163.0719,54.45,94,100,16.84,moderate rain
682,Moron,AR,-34.6534,-58.6198,59.0,55,100,6.46,overcast clouds
683,Cayenne,GF,4.9333,-52.3333,86.09,24,75,4.0,broken clouds
684,Benito Juarez,MX,19.385,-99.165,70.0,51,75,6.91,broken clouds
685,San Antonio,US,29.4241,-98.4936,101.07,40,0,6.91,clear sky
686,Sterling,US,39.0062,-77.4286,93.54,65,75,3.44,broken clouds
687,Zasheyek,RU,67.4066,32.5499,58.95,91,100,10.27,overcast clouds
688,Shahgarh,IN,24.3167,79.1333,77.65,89,76,9.53,broken clouds
689,Alta Floresta,BR,-9.8756,-56.0861,89.42,37,0,6.91,clear sky
690,Yol,IN,32.1667,76.2,77.9,88,100,4.12,overcast clouds
691,Scottsboro,US,34.6723,-86.0341,78.78,100,20,0.0,few clouds
692,Kralovice,CZ,49.9819,13.4875,73.22,54,13,3.76,few clouds
693,Aklavik,CA,68.2191,-135.0107,54.5,47,31,6.82,scattered clouds
694,Ozinki,RU,51.1786,49.6769,81.21,35,60,7.4,broken clouds
695,Gorontalo,ID,0.5412,123.0595,75.38,92,97,1.7,overcast clouds
696,Constitucion,CL,-35.3333,-72.4167,56.17,63,0,11.32,clear sky
697,Vaxjo,SE,56.8777,14.8091,69.85,60,0,5.75,clear sky
698,Lobez,PL,53.6392,15.6213,71.51,57,7,8.43,clear sky
699,Chizhou,CN,30.6578,117.4831,81.91,74,56,2.62,broken clouds
700,Coihaique,CL,-45.5752,-72.0662,48.15,71,100,4.61,overcast clouds
701,Ratnapura,LK,6.6828,80.3992,74.16,81,95,2.33,overcast clouds
702,Lokosovo,RU,61.1333,74.8167,59.45,65,83,3.22,broken clouds
703,Ozernovskiy,RU,51.5,156.5167,55.71,87,54,4.16,broken clouds
704,Nakhon Thai,TH,17.1006,100.8374,74.46,97,100,2.13,light rain
705,Saint-Joseph,RE,-21.3667,55.6167,66.58,74,26,16.91,scattered clouds
706,Vila,PT,42.0304,-8.1588,68.88,66,9,3.87,clear sky
707,Tupancireta,BR,-29.0806,-53.8358,53.47,73,45,11.81,scattered clouds
708,Velsk,RU,61.0701,42.0983,53.04,93,6,2.93,clear sky
709,Malko Tarnovo,BG,41.9833,27.5333,66.11,80,0,5.17,clear sky
710,Davila,PH,18.4726,120.5763,76.98,81,100,4.7,light rain
711,Belle Fourche,US,44.6714,-103.8522,95.5,20,46,15.57,scattered clouds
712,Zapolyarnyy,RU,69.4154,30.8136,58.28,95,100,19.26,overcast clouds
713,Chapais,CA,49.7834,-74.8492,78.51,38,8,13.29,clear sky
714,Bosobolo,CD,4.1833,19.9,72.03,94,100,2.93,overcast clouds
715,Taga,RO,46.95,24.05,70.32,63,89,4.05,overcast clouds
716,Dombarovskiy,RU,50.7587,59.5386,70.88,55,10,8.08,clear sky
